{
    "locations": 

[
  {
    "name":"Alaska",
    "lat":61.3850,
    "long":-152.2683
  },
  {
    "name":"Alabama",
    "lat":32.7990,
    "long":-86.8073
  },
  {
    "name":"Arkansas",
    "lat":34.9513,
    "long":-92.3809
  },
  {
    "name":"Arizona",
    "lat":33.7712,
    "long":-111.3877
  },
  {
    "name":"California",
    "lat":36.1700,
    "long":-119.7462
  },
  {
    "name":"Colorado",
    "lat":39.0646,
    "long":-105.3272
  },
  {
    "name":"Connecticut",
    "lat":41.5834,
    "long":-72.7622
  },
  {
    "name":"Delaware",
    "lat":39.3498,
    "long":-75.5148
  },
  {
    "name":"Florida",
    "lat":27.8333,
    "long":-81.7170
  },
  {
    "name":"Georgia",
    "lat":32.9866,
    "long":-83.6487
  },
  {
    "name":"Hawaii",
    "lat":21.1098,
    "long":-157.5311
  },
  {
    "name":"Iowa",
    "lat":42.0046,
    "long":-93.2140
  },
  {
    "name":"Idaho",
    "lat":44.2394,
    "long":-114.5103
  },
  {
    "name":"Illinois",
    "lat":40.3363,
    "long":-89.0022
  },
  {
    "name":"Indiana",
    "lat":39.8647,
    "long":-86.2604
  },
  {
    "name":"Kansas",
    "lat":38.5111,
    "long":-96.8005
  },
  {
    "name":"Kentucky",
    "lat":37.6690,
    "long":-84.6514
  },
  {
    "name":"Louisiana",
    "lat":31.1801,
    "long":-91.8749
  },
  {
    "name":"Massachusetts",
    "lat":42.2373,
    "long":-71.5314
  },
  {
    "name":"Maryland",
    "lat":39.0724,
    "long":-76.7902
  },
  {
    "name":"Maine",
    "lat":44.6074,
    "long":-69.3977
  },
  {
    "name":"Michigan",
    "lat":43.3504,
    "long":-84.5603
  },
  {
    "name":"Minnesota",
    "lat":45.7326,
    "long":-93.9196
  },
  {
    "name":"Missouri",
    "lat":38.4623,
    "long":-92.3020
  },
  {
    "name":"Mississippi",
    "lat":32.7673,
    "long":-89.6812
  },
  {
    "name":"Montana",
    "lat":46.9048,
    "long":-110.3261
  },
  {
    "name":"North Carolina",
    "lat":35.6411,
    "long":-79.8431
  },
  {
    "name":"North Dakota",
    "lat":47.5362,
    "long":-99.7930
  },
  {
    "name":"Nebraska",
    "lat":41.1289,
    "long":-98.2883
  },
  {
    "name":"New Hampshire",
    "lat":43.4108,
    "long":-71.5653
  },
  {
    "name":"New Jersey",
    "lat":40.3140,
    "long":-74.5089
  },
  {
    "name":"New Mexico",
    "lat":34.8375,
    "long":-106.2371
  },
  {
    "name":"Nevada",
    "lat":38.4199,
    "long":-117.1219
  },
  {
    "name":"New York",
    "lat":42.1497,
    "long":-74.9384
  },
  {
    "name":"Ohio",
    "lat":40.3736,
    "long":-82.7755
  },
  {
    "name":"Oklahoma",
    "lat":35.5376,
    "long":-96.9247
  },
  {
    "name":"Oregon",
    "lat":44.5672,
    "long":-122.1269
  },
  {
    "name":"Pennsylvania",
    "lat":40.5773,
    "long":-77.2640
  },
  {
    "name":"Rhode Island",
    "lat":41.6772,
    "long":-71.5101
  },
  {
    "name":"South Carolina",
    "lat":33.8191,
    "long":-80.9066
  },
  {
    "name":"South Dakota",
    "lat":44.2853,
    "long":-99.4632
  },
  {
    "name":"Tennessee",
    "lat":35.7449,
    "long":-86.7489
  },
  {
    "name":"Texas",
    "lat":31.1060,
    "long":-97.6475
  },
  {
    "name":"Utah",
    "lat":40.1135,
    "long":-111.8535
  },
  {
    "name":"Virginia",
    "lat":37.7680,
    "long":-78.2057
  },
  {
    "name":"Vermont",
    "lat":44.0407,
    "long":-72.7093
  },
  {
    "name":"Washington",
    "lat":47.3917,
    "long":-121.5708
  },
  {
    "name":"Wisconsin",
    "lat":44.2563,
    "long":-89.6385
  },
  {
    "name":"West Virginia",
    "lat":38.4680,
    "long":-80.9696
  },
  {
    "name":"Wyoming",
    "lat":42.7475,
    "long":-107.2085
  }
]
}
